{
"city": {
"id": 98101,
"city": "Seattle",
"lat": 47.61,
"lng": -122.33,
"state": "WA",
"country": "us",
"zip": "98101",
"member_count": 58965
},
"events": [
{
"created": 1551317046000,
"duration": 7200000,
"id": "rsdpsqyzjblb",
"name": "üç∞üìäData Viz and Snacksüìàüç©",
"date_in_series_pattern": false,
"status": "upcoming",
"time": 1560020400000,
"local_date": "2019-05-31",
"local_time": "12:00",
"updated": 1551317046000,
"utc_offset": -25200000,
"waitlist_count": 0,
"yes_rsvp_count": 20,
"venue": {
"id": 25636172,
"name": "Cupcake Royale",
"lat": 47.61392593383789,
"lng": -122.31755065917969,
"repinned": true,
"address_1": "1111 East Pike Street",
"city": "Seattle",
"country": "US",
"localized_country_name": "USA"
},
"group": {
"created": 1466875506000,
"name": "Data Viz Jam Sessions",
"id": 20113831,
"join_mode": "open",
"lat": 47.61000061035156,
"lng": -122.33000183105469,
"urlname": "Data-Viz-Jam-Sessions",
"who": "Visionaries",
"localized_location": "Seattle, WA",
"state": "WA",
"country": "us",
"region": "en_US",
"timezone": "US/Pacific"
},
"link": "https://www.meetup.com/Data-Viz-Jam-Sessions/events/rsdpsqyzjblb/",
"description": "description",
"visibility": "public"
},
{
"created": 1551317046000,
"duration": 7200000,
"id": "rsdpsqyzkbrb",
"name": "üç∞üìäData Viz and Snacksüìàüç©",
"date_in_series_pattern": false,
"status": "upcoming",
"time": 1561834800000,
"local_date": "2019-05-31",
"local_time": "12:00",
"updated": 1554780122000,
"utc_offset": -25200000,
"waitlist_count": 0,
"yes_rsvp_count": 5,
"venue": {
"id": 25636172,
"name": "Cupcake Royale",
"lat": 47.61392593383789,
"lng": -122.31755065917969,
"repinned": true,
"address_1": "1111 East Pike Street",
"city": "Seattle",
"country": "US",
"localized_country_name": "USA"
},
"group": {
"created": 1466875506000,
"name": "Data Viz Jam Sessions",
"id": 20113831,
"join_mode": "open",
"lat": 47.61000061035156,
"lng": -122.33000183105469,
"urlname": "Data-Viz-Jam-Sessions",
"who": "Visionaries",
"localized_location": "Seattle, WA",
"state": "WA",
"country": "us",
"region": "en_US",
"timezone": "US/Pacific"
},
"link": "https://www.meetup.com/Data-Viz-Jam-Sessions/events/rsdpsqyzkbrb/",
"description": "description",
"visibility": "public"
},
{
"created": 1558576392000,
"duration": 7200000,
"id": "261692547",
"name": "Interview Practice Night",
"rsvp_limit": 30,
"date_in_series_pattern": false,
"status": "upcoming",
"time": 1559610900000,
"local_date": "2019-06-03",
"local_time": "18:15",
"updated": 1558576392000,
"utc_offset": -25200000,
"waitlist_count": 4,
"yes_rsvp_count": 30,
"venue": {
"id": 26329837,
"name": "Flatiron School",
"lat": 47.609275817871094,
"lng": -122.33636474609375,
"repinned": true,
"address_1": "1411 4th Ave",
"city": "Seattle",
"country": "us",
"localized_country_name": "USA",
"zip": "98101",
"state": "WA"
},
"group": {
"created": 1408575806000,
"name": "Puget Sound Programming Python (PuPPy)",
"id": 16517502,
"join_mode": "open",
"lat": 47.630001068115234,
"lng": -122.33999633789062,
"urlname": "PSPPython",
"who": "Pythonistas",
"localized_location": "Seattle, WA",
"state": "WA",
"country": "us",
"region": "en_US",
"timezone": "US/Pacific"
},
"link": "https://www.meetup.com/PSPPython/events/261692547/",
"description": "description",
"visibility": "public",
"pro_is_email_shared": true
},
{
"created": 1558576490000,
"duration": 7200000,
"id": "261692561",
"name": "Interview Practice Night",
"rsvp_limit": 30,
"date_in_series_pattern": false,
"status": "upcoming",
"time": 1560215700000,
"local_date": "2019-06-10",
"local_time": "18:15",
"updated": 1558576490000,
"utc_offset": -25200000,
"waitlist_count": 0,
"yes_rsvp_count": 15,
"venue": {
"id": 26046365,
"name": "Galvanize - Seattle",
"lat": 47.59901428222656,
"lng": -122.3338394165039,
"repinned": true,
"address_1": "111 S Jackson St",
"city": "Seattle",
"country": "us",
"localized_country_name": "USA",
"zip": "98104",
"state": "WA"
},
"group": {
"created": 1408575806000,
"name": "Puget Sound Programming Python (PuPPy)",
"id": 16517502,
"join_mode": "open",
"lat": 47.630001068115234,
"lng": -122.33999633789062,
"urlname": "PSPPython",
"who": "Pythonistas",
"localized_location": "Seattle, WA",
"state": "WA",
"country": "us",
"region": "en_US",
"timezone": "US/Pacific"
},
"link": "https://www.meetup.com/PSPPython/events/261692561/",
"description": "description",
"visibility": "public",
"pro_is_email_shared": true
},
{
"created": 1515003555000,
"duration": 9000000,
"id": "cqltdpyzjbqb",
"name": "2nd Wednesday of the Month Talk Format Meeting",
"rsvp_limit": 130,
"date_in_series_pattern": false,
"status": "upcoming",
"time": 1560387600000,
"local_date": "2019-06-12",
"local_time": "18:00",
"updated": 1557940781000,
"utc_offset": -25200000,
"waitlist_count": 0,
"yes_rsvp_count": 110,
"venue": {
"id": 26389676,
"name": "Boston Consulting Group",
"lat": 47.60718536376953,
"lng": -122.33611297607422,
"repinned": true,
"address_1": "1201 3rd Ave #5400",
"city": "Seattle",
"country": "us",
"localized_country_name": "USA",
"zip": "98101",
"state": "WA"
},
"group": {
"created": 1408575806000,
"name": "Puget Sound Programming Python (PuPPy)",
"id": 16517502,
"join_mode": "open",
"lat": 47.630001068115234,
"lng": -122.33999633789062,
"urlname": "PSPPython",
"who": "Pythonistas",
"localized_location": "Seattle, WA",
"state": "WA",
"country": "us",
"region": "en_US",
"timezone": "US/Pacific"
},
"link": "https://www.meetup.com/PSPPython/events/cqltdpyzjbqb/",
"description": "description",
"visibility": "public",
"pro_is_email_shared": true
},
{
"created": 1557956863000,
"duration": 3600000,
"id": "261492602",
"name": "AMA Ask Me Anything About Transitioning to Data Science from Academia",
"date_in_series_pattern": false,
"status": "upcoming",
"time": 1559692800000,
"local_date": "2019-06-04",
"local_time": "17:00",
"updated": 1557956863000,
"utc_offset": -25200000,
"waitlist_count": 0,
"yes_rsvp_count": 9,
"venue": {
"id": 26366588,
"name": "Metis Community Slack",
"lat": 47.60620880126953,
"lng": -122.33206939697266,
"repinned": false,
"address_1": "http://bit.ly/MetisCommunitySlack",
"city": "Seattle",
"country": "us",
"localized_country_name": "USA",
"zip": "98101",
"state": "wa"
},
"group": {
"created": 1475010483000,
"name": "Metis: Seattle Data Science",
"id": 20486191,
"join_mode": "open",
"lat": 47.61000061035156,
"lng": -122.33000183105469,
"urlname": "Metis-Seattle-Data-Science",
"who": "Aspiring Data Scientists",
"localized_location": "Seattle, WA",
"state": "WA",
"country": "us",
"region": "en_US",
"timezone": "US/Pacific"
},
"link": "https://www.meetup.com/Metis-Seattle-Data-Science/events/261492602/",
"description": "description",
"visibility": "public",
"pro_is_email_shared": false
},
{
"created": 1558383704000,
"duration": 7200000,
"id": "261625830",
"name": "The Power of Workflows: A Problem Well-Stated is a Problem Half-Solved",
"date_in_series_pattern": false,
"status": "upcoming",
"time": 1560387600000,
"local_date": "2019-06-12",
"local_time": "18:00",
"updated": 1558624376000,
"utc_offset": -25200000,
"waitlist_count": 0,
"yes_rsvp_count": 10,
"venue": {
"id": 26402927,
"name": "51 University St",
"lat": 47.60596466064453,
"lng": -122.33948516845703,
"repinned": true,
"address_1": "51 University St",
"city": "Seattle",
"country": "us",
"localized_country_name": "USA",
"zip": "98101",
"state": "WA"
},
"group": {
"created": 1475010483000,
"name": "Metis: Seattle Data Science",
"id": 20486191,
"join_mode": "open",
"lat": 47.61000061035156,
"lng": -122.33000183105469,
"urlname": "Metis-Seattle-Data-Science",
"who": "Aspiring Data Scientists",
"localized_location": "Seattle, WA",
"state": "WA",
"country": "us",
"region": "en_US",
"timezone": "US/Pacific"
},
"link": "https://www.meetup.com/Metis-Seattle-Data-Science/events/261625830/",
"description": "description",
"how_to_find_us": "Suite 300",
"visibility": "public",
"pro_is_email_shared": false
},
{
"created": 1558109350000,
"duration": 7200000,
"id": "261546263",
"name": "Seattle Women in Data Science - Data Science Interview Practice Group",
"date_in_series_pattern": false,
"status": "upcoming",
"time": 1560474000000,
"local_date": "2019-06-13",
"local_time": "18:00",
"updated": 1558109504000,
"utc_offset": -25200000,
"waitlist_count": 0,
"yes_rsvp_count": 6,
"venue": {
"id": 24837478,
"name": "Metis Seattle (Kaplan International English - Seattle)",
"lat": 47.60601043701172,
"lng": -122.33948516845703,
"repinned": true,
"address_1": "51 University St.",
"address_2": "Suite 300",
"city": "Seattle",
"country": "us",
"localized_country_name": "USA",
"zip": "98101",
"state": "WA"
},
"group": {
"created": 1475010483000,
"name": "Metis: Seattle Data Science",
"id": 20486191,
"join_mode": "open",
"lat": 47.61000061035156,
"lng": -122.33000183105469,
"urlname": "Metis-Seattle-Data-Science",
"who": "Aspiring Data Scientists",
"localized_location": "Seattle, WA",
"state": "WA",
"country": "us",
"region": "en_US",
"timezone": "US/Pacific"
},
"link": "https://www.meetup.com/Metis-Seattle-Data-Science/events/261546263/",
"description": "description",
"visibility": "public",
"pro_is_email_shared": false
},
{
"created": 1557263133000,
"duration": 7200000,
"id": "261268520",
"name": "Data Science Fundamentals: Intro to Python (6.4 - 7.11 Class)",
"date_in_series_pattern": false,
"status": "upcoming",
"time": 1559698200000,
"local_date": "2019-06-04",
"local_time": "18:30",
"updated": 1557263534000,
"utc_offset": -25200000,
"waitlist_count": 0,
"yes_rsvp_count": 8,
"venue": {
"id": 23866922,
"name": "Galvanize",
"lat": 47.59917449951172,
"lng": -122.33366394042969,
"repinned": true,
"address_1": "111 S. Jackson St.",
"city": "Seattle",
"country": "us",
"localized_country_name": "USA",
"zip": "",
"state": "WA"
},
"group": {
"created": 1432661765000,
"name": "Seattle Data Science",
"id": 18626905,
"join_mode": "open",
"lat": 47.599998474121094,
"lng": -122.33000183105469,
"urlname": "Seattle-Data-Science",
"who": "Data Scientists",
"localized_location": "Seattle, WA",
"state": "WA",
"country": "us",
"region": "en_US",
"timezone": "US/Pacific"
},
"link": "https://www.meetup.com/Seattle-Data-Science/events/261268520/",
"description": "description",
"visibility": "public",
"pro_is_email_shared": false
},
{
"created": 1558543635000,
"duration": 7200000,
"id": "261677448",
"name": "Break into Data Science! Panel Discussion",
"date_in_series_pattern": false,
"status": "upcoming",
"time": 1560216600000,
"local_date": "2019-06-10",
"local_time": "18:30",
"updated": 1558543684000,
"utc_offset": -25200000,
"waitlist_count": 0,
"yes_rsvp_count": 11,
"venue": {
"id": 23866922,
"name": "Galvanize",
"lat": 47.59917449951172,
"lng": -122.33366394042969,
"repinned": true,
"address_1": "111 S. Jackson St.",
"city": "Seattle",
"country": "us",
"localized_country_name": "USA",
"zip": "",
"state": "WA"
},
"group": {
"created": 1432661765000,
"name": "Seattle Data Science",
"id": 18626905,
"join_mode": "open",
"lat": 47.599998474121094,
"lng": -122.33000183105469,
"urlname": "Seattle-Data-Science",
"who": "Data Scientists",
"localized_location": "Seattle, WA",
"state": "WA",
"country": "us",
"region": "en_US",
"timezone": "US/Pacific"
},
"link": "https://www.meetup.com/Seattle-Data-Science/events/261677448/",
"description": "description",
"visibility": "public",
"pro_is_email_shared": false
},
{
"created": 1559265250000,
"duration": 7200000,
"id": "261915944",
"name": "Panel - Ramping up for Data Engineering",
"rsvp_limit": 100,
"date_in_series_pattern": false,
"status": "upcoming",
"time": 1560387600000,
"local_date": "2019-05-31",
"local_time": "18:00",
"updated": 1559265255000,
"utc_offset": -25200000,
"waitlist_count": 0,
"yes_rsvp_count": 2,
"group": {
"created": 1320027588000,
"name": "Seattle Data/Analytics/Machine Learning",
"id": 2733242,
"join_mode": "open",
"lat": 47.630001068115234,
"lng": -122.31999969482422,
"urlname": "Seattle-DAML",
"who": "data nerds",
"localized_location": "Seattle, WA",
"state": "WA",
"country": "us",
"region": "en_US",
"timezone": "US/Pacific"
},
"link": "https://www.meetup.com/Seattle-DAML/events/261915944/",
"description": "description",
"visibility": "public"
},
{
"created": 1556129121000,
"duration": 10800000,
"id": "260887695",
"name": "Automotive Cloud and the Future of Mobility",
"rsvp_limit": 100,
"date_in_series_pattern": false,
"status": "upcoming",
"time": 1559869200000,
"local_date": "2019-06-01",
"local_time": "18:00",
"updated": 1557940274000,
"utc_offset": -25200000,
"waitlist_count": 0,
"yes_rsvp_count": 10,
"venue": {
"id": 26064061,
"name": "thinkspace SEATTLE",
"lat": 47.63437271118164,
"lng": -122.33966064453125,
"repinned": true,
"address_1": "1700 Westlake Ave N Suite 200",
"city": "Seattle",
"country": "us",
"localized_country_name": "USA",
"zip": "98109",
"state": "WA"
},
"group": {
"created": 1553803294000,
"name": "Smart Mobility Seattle",
"id": 31502393,
"join_mode": "open",
"lat": 47.61000061035156,
"lng": -122.33000183105469,
"urlname": "Smart-Mobility-Seattle",
"who": "Members",
"localized_location": "Seattle, WA",
"state": "WA",
"country": "us",
"region": "en_US",
"timezone": "US/Pacific"
},
"link": "https://www.meetup.com/Smart-Mobility-Seattle/events/260887695/",
"description": "description",
"visibility": "public"
},
{
"created": 1559187747000,
"duration": 9000000,
"id": "261887521",
"name": "DAMA Puget Sound Chapter Meeting - Data Management and Machine Learning",
"date_in_series_pattern": false,
"status": "upcoming",
"time": 1560301200000,
"local_date": "2019-05-31",
"local_time": "18:00",
"updated": 1559187747000,
"utc_offset": -25200000,
"waitlist_count": 0,
"yes_rsvp_count": 3,
"venue": {
"id": 26423512,
"name": "Silver Cloud Hotel - Seattle Broadway",
"lat": 47.61163330078125,
"lng": -122.32026672363281,
"repinned": false,
"address_1": "1100 Broadway",
"city": "Seattle",
"country": "us",
"localized_country_name": "USA",
"zip": "98122",
"state": "WA"
},
"group": {
"created": 1415764733000,
"name": "DAMA Puget Sound",
"id": 18182991,
"join_mode": "open",
"lat": 47.59000015258789,
"lng": -122.30000305175781,
"urlname": "DAMAPugetSound",
"who": "Members",
"localized_location": "Seattle, WA",
"state": "WA",
"country": "us",
"region": "en_US",
"timezone": "US/Pacific"
},
"link": "https://www.meetup.com/DAMAPugetSound/events/261887521/",
"description": "description",
"how_to_find_us": "https://dama-ps.org/",
"visibility": "public"
},
{
"created": 1558332726000,
"duration": 111600000,
"id": "261608351",
"name": "[PAID Training]  End to End Deep Learning for Computer Vision",
"date_in_series_pattern": false,
"status": "upcoming",
"time": 1560614400000,
"local_date": "2019-06-01",
"local_time": "09:00",
"updated": 1558332945000,
"utc_offset": -25200000,
"waitlist_count": 0,
"yes_rsvp_count": 7,
"venue": {
"id": 26186769,
"name": "Impact Hub Seattle",
"lat": 47.60048294067383,
"lng": -122.33123779296875,
"repinned": true,
"address_1": "220 2nd Ave S",
"city": "Seattle",
"country": "us",
"localized_country_name": "USA",
"zip": "98104",
"state": "WA"
},
"group": {
"created": 1367820591000,
"name": "Seattle AI Tech Talks Group",
"id": 8362282,
"join_mode": "open",
"lat": 47.619998931884766,
"lng": -122.20999908447266,
"urlname": "aittg-seattle",
"who": "engineer",
"localized_location": "Bellevue, WA",
"state": "WA",
"country": "us",
"region": "en_US",
"timezone": "US/Pacific"
},
"link": "https://www.meetup.com/aittg-seattle/events/261608351/",
"description": "description",
"visibility": "public"
},
{
"created": 1532645007000,
"duration": 5400000,
"id": "kgmkbqyzhbpc",
"name": "Seattle CoffeeOps (Dev üíôOps) Community",
"date_in_series_pattern": false,
"status": "upcoming",
"time": 1559314800000,
"local_date": "2019-05-31",
"local_time": "08:00",
"updated": 1556935214000,
"utc_offset": -25200000,
"waitlist_count": 0,
"yes_rsvp_count": 36,
"venue": {
"id": 24894415,
"name": "Chef Software, Inc.",
"lat": 47.6021842956543,
"lng": -122.33595275878906,
"repinned": false,
"address_1": "619 Western Ave",
"city": "Seattle",
"country": "us",
"localized_country_name": "USA",
"phone": "(206) 508-4799",
"zip": "98104",
"state": "WA"
},
"group": {
"created": 1426565876000,
"name": "Seattle CoffeeOps (DevüíôOps)",
"id": 18507195,
"join_mode": "open",
"lat": 47.599998474121094,
"lng": -122.33000183105469,
"urlname": "Seattle-CoffeeOps",
"who": "CoffeeOpsters",
"localized_location": "Seattle, WA",
"state": "WA",
"country": "us",
"region": "en_US",
"timezone": "US/Pacific"
},
"link": "https://www.meetup.com/Seattle-CoffeeOps/events/kgmkbqyzhbpc/",
"description": "description",
"how_to_find_us": "We meet at Chef Software on the 4th floor of 619 Western in the cafe area.",
"visibility": "public"
},
{
"created": 1532645007000,
"duration": 5400000,
"id": "kgmkbqyzjbsb",
"name": "Seattle CoffeeOps (Dev üíôOps) Community",
"date_in_series_pattern": false,
"status": "upcoming",
"time": 1560524400000,
"local_date": "2019-06-01",
"local_time": "08:00",
"updated": 1556935238000,
"utc_offset": -25200000,
"waitlist_count": 0,
"yes_rsvp_count": 14,
"venue": {
"id": 24894415,
"name": "Chef Software, Inc.",
"lat": 47.6021842956543,
"lng": -122.33595275878906,
"repinned": false,
"address_1": "619 Western Ave",
"city": "Seattle",
"country": "us",
"localized_country_name": "USA",
"phone": "(206) 508-4799",
"zip": "98104",
"state": "WA"
},
"group": {
"created": 1426565876000,
"name": "Seattle CoffeeOps (DevüíôOps)",
"id": 18507195,
"join_mode": "open",
"lat": 47.599998474121094,
"lng": -122.33000183105469,
"urlname": "Seattle-CoffeeOps",
"who": "CoffeeOpsters",
"localized_location": "Seattle, WA",
"state": "WA",
"country": "us",
"region": "en_US",
"timezone": "US/Pacific"
},
"link": "https://www.meetup.com/Seattle-CoffeeOps/events/kgmkbqyzjbsb/",
"description": "description",
"how_to_find_us": "We meet at Chef Software on the 4th floor of 619 Western in the cafe area.",
"visibility": "public"
},
{
"created": 1532645007000,
"duration": 5400000,
"id": "kgmkbqyzjblc",
"name": "Seattle CoffeeOps (Dev üíôOps) Community",
"date_in_series_pattern": false,
"status": "upcoming",
"time": 1561734000000,
"local_date": "2019-05-31",
"local_time": "08:00",
"updated": 1558727762000,
"utc_offset": -25200000,
"waitlist_count": 0,
"yes_rsvp_count": 14,
"venue": {
"id": 24894415,
"name": "Chef Software, Inc.",
"lat": 47.6021842956543,
"lng": -122.33595275878906,
"repinned": false,
"address_1": "619 Western Ave",
"city": "Seattle",
"country": "us",
"localized_country_name": "USA",
"phone": "(206) 508-4799",
"zip": "98104",
"state": "WA"
},
"group": {
"created": 1426565876000,
"name": "Seattle CoffeeOps (DevüíôOps)",
"id": 18507195,
"join_mode": "open",
"lat": 47.599998474121094,
"lng": -122.33000183105469,
"urlname": "Seattle-CoffeeOps",
"who": "CoffeeOpsters",
"localized_location": "Seattle, WA",
"state": "WA",
"country": "us",
"region": "en_US",
"timezone": "US/Pacific"
},
"link": "https://www.meetup.com/Seattle-CoffeeOps/events/kgmkbqyzjblc/",
"description": "description",
"how_to_find_us": "We meet at Chef Software on the 4th floor of 619 Western in the cafe area.",
"visibility": "public"
},
{
"created": 1557790738000,
"duration": 14400000,
"id": "261438297",
"name": "Free Intro to Programming 4-hr Workshop - Seattle",
"rsvp_limit": 100,
"date_in_series_pattern": false,
"status": "upcoming",
"time": 1560621600000,
"local_date": "2019-05-31",
"local_time": "11:00",
"updated": 1557790738000,
"utc_offset": -25200000,
"waitlist_count": 0,
"yes_rsvp_count": 7,
"venue": {
"id": 26145343,
"name": "Epicodus",
"lat": 47.60922622680664,
"lng": -122.33667755126953,
"repinned": true,
"address_1": "1402 3rd Ave Suite 505",
"city": "Seattle",
"country": "us",
"localized_country_name": "USA",
"zip": "98101",
"state": "WA"
},
"group": {
"created": 1492639114000,
"name": "Seattle Intro to Programming Meetup",
"id": 23345947,
"join_mode": "open",
"lat": 47.61000061035156,
"lng": -122.33000183105469,
"urlname": "Seattle-Intro-to-Programming-Meetup",
"who": "Members",
"localized_location": "Seattle, WA",
"state": "WA",
"country": "us",
"region": "en_US",
"timezone": "US/Pacific"
},
"link": "https://www.meetup.com/Seattle-Intro-to-Programming-Meetup/events/261438297/",
"description": "description",
"visibility": "public"
},
{
"created": 1558380587000,
"duration": 21600000,
"id": "261623716",
"name": "UX for Mobile Design",
"date_in_series_pattern": false,
"status": "upcoming",
"time": 1560013200000,
"local_date": "2019-06-01",
"local_time": "10:00",
"updated": 1558636077000,
"utc_offset": -25200000,
"waitlist_count": 0,
"yes_rsvp_count": 4,
"venue": {
"id": 26037152,
"name": "General Assembly Seattle",
"lat": 47.60773849487305,
"lng": -122.3354721069336,
"repinned": false,
"address_1": "1218 3rd Ave",
"city": "Seattle",
"country": "us",
"localized_country_name": "USA",
"zip": "98101",
"state": "WA"
},
"group": {
"created": 1413684240000,
"name": "General Assembly Seattle",
"id": 17712692,
"join_mode": "open",
"lat": 47.630001068115234,
"lng": -122.33999633789062,
"urlname": "General-Assembly-Seattle",
"who": "Learners",
"localized_location": "Seattle, WA",
"state": "WA",
"country": "us",
"region": "en_US",
"timezone": "US/Pacific"
},
"link": "https://www.meetup.com/General-Assembly-Seattle/events/261623716/",
"description": "description",
"visibility": "public"
},
{
"local_time": "15:00",
"local_date": "2019-06-01",
"link": "https://www.meetup.com/Solaris-Club/events/261567083/",
"visibility": "public_limited",
"group": {
"created": 1516953285000,
"name": "Solaris Club",
"id": 27280122,
"join_mode": "approval",
"lat": 47.61000061035156,
"lng": -122.33000183105469,
"urlname": "Solaris-Club",
"who": "Members",
"localized_location": "Seattle, WA",
"state": "WA",
"country": "us",
"region": "en_US",
"timezone": "US/Pacific"
},
"waitlist_count": 0,
"yes_rsvp_count": 12,
"duration": 7200000,
"time": 1559426400000,
"utc_offset": -25200000,
"name": "BULLSHIT: THE GOOD, THE BAD AND THE UGLY",
"id": "261567083"
}
]
}
